{
  "F638C38005BF2E": {
    "address": "236023新北市土城區海山路39號B2",
    "lat": 24.9882305,
    "lng": 121.4482429,
    "name": "板南線-海山站",
    "resolved_at": "2026-06-17"
  },
  "F638C3840C561D": {
    "address": "231007新北市新店區北新路2段150號",
    "lat": 24.9749871,
    "lng": 121.543008,
    "name": "松山新店線-七張站",
    "resolved_at": "2026-06-17"
  },
  "F638C38C0C5451": {
    "address": "220030新北市板橋區民生路3段2號B1",
    "lat": 25.0245167,
    "lng": 121.46674,
    "name": "板南線-新埔站",
    "resolved_at": "2026-06-17"
  },
  "F638C39205D81C": {
    "address": "247011新北市蘆洲區三民路386號B1",
    "lat": 25.09165,
    "lng": 121.46358,
    "name": "中和新蘆線-蘆洲站",
    "resolved_at": "2026-06-17"
  },
  "F638C39205D81F": {
    "address": "新北市中和區中山路二段271號",
    "lat": 25.00192,
    "lng": 121.4966634,
    "name": "環狀線-中和站",
    "resolved_at": "2026-06-17"
  },
  "F638C39405D3A4": {
    "address": "103014臺北市大同區南京西路16號",
    "lat": 25.0528887,
    "lng": 121.5197444,
    "name": "淡水信義線-中山站",
    "resolved_at": "2026-06-17"
  },
  "F638C3AB05CB05": {
    "address": "110060臺北市信義區忠孝東路5段2號",
    "lat": 25.0409698,
    "lng": 121.5653193,
    "name": "板南線-市政府站",
    "resolved_at": "2026-06-17"
  },
  "F638C3B40B65E1": {
    "address": "234016新北市永和區永和路2段168號B1",
    "lat": 25.012643,
    "lng": 121.515315,
    "name": "中和新蘆線-頂溪站",
    "resolved_at": "2026-06-17"
  },
  "F638C3C405B6D2": {
    "address": "220052新北市板橋區縣民大道1段193號B1",
    "lat": 25.009218,
    "lng": 121.4598304,
    "name": "板南線-府中站",
    "resolved_at": "2026-06-17"
  },
  "F638C3C80C2AC3": {
    "address": "新北市新店區民權路282號(2F大廳層出口)",
    "lat": 24.983819,
    "lng": 121.52833,
    "name": "環狀線-十四張站",
    "resolved_at": "2026-06-17"
  },
  "F638C3CB05B54A": {
    "address": "新北市板橋區新站路66號(3F大廳層出口)",
    "lat": 25.013971,
    "lng": 121.4625952,
    "name": "環狀線-板橋站",
    "resolved_at": "2026-06-17"
  },
  "F638C3DA0C957D": {
    "address": "112006臺北市北投區光明路1號",
    "lat": 25.1304663,
    "lng": 121.5006099,
    "name": "淡水信義線-北投站",
    "resolved_at": "2026-06-17"
  },
  "F638C3E205B6E6": {
    "address": "台北市萬華區成都路18號",
    "lat": 25.043617,
    "lng": 121.5052541,
    "name": "台北西門店",
    "resolved_at": "2026-06-17"
  },
  "F638C3E205B6E8": {
    "address": "屏東縣屏東市仁愛路14之16號",
    "lat": 22.681,
    "lng": 120.4962,
    "name": "屏東仁愛店",
    "resolved_at": "2026-06-17"
  },
  "F638C3E505D058": {
    "address": "新北市新莊區思源路292號(2F連通道層出口)",
    "lat": 25.0507343,
    "lng": 121.4596693,
    "name": "環狀線-幸福站",
    "resolved_at": "2026-06-17"
  },
  "F638C5390CABA0": {
    "address": "235050新北市中和區捷運路6號",
    "lat": 24.98942,
    "lng": 121.50998,
    "name": "中和新蘆線-南勢角站",
    "resolved_at": "2026-06-17"
  },
  "F638C5390CABA2": {
    "address": "桃園市桃園區中正路50號",
    "lat": 24.8636399,
    "lng": 121.2169879,
    "name": "桃園中正店",
    "resolved_at": "2026-06-17"
  },
  "F638C55001AE22": {
    "address": "台北市內湖區瑞湖街178巷15號",
    "lat": 25.0708642,
    "lng": 121.5758644,
    "name": "內湖旗艦店",
    "resolved_at": "2026-06-17"
  },
  "F638C56F0B2313": {
    "address": "235086新北市中和區景平路486號",
    "lat": 24.9934517,
    "lng": 121.505623,
    "name": "中和新蘆線-景安站",
    "resolved_at": "2026-06-17"
  },
  "F638C56F0B2314": {
    "address": "220073新北市板橋區站前路5號B1",
    "lat": 25.013971,
    "lng": 121.4625952,
    "name": "板南線-板橋站",
    "resolved_at": "2026-06-17"
  },
  "F638C5930260D9": {
    "address": "100009臺北市中正區忠孝西路1段49號B1 (近B1樓層M8出口)",
    "lat": 25.0474605,
    "lng": 121.5182136,
    "name": "板南線-台北車站",
    "resolved_at": "2026-06-17"
  },
  "F638C61D01B3CB": {
    "address": "103032臺北市大同區酒泉街9之1號",
    "lat": 25.0690841,
    "lng": 121.5199371,
    "name": "淡水信義線-圓山站",
    "resolved_at": "2026-06-17"
  },
  "F638C63801AA82": {
    "address": "新北市新莊區五工路35號",
    "lat": 25.061096,
    "lng": 121.4600228,
    "name": "環狀線-新北產業園區站",
    "resolved_at": "2026-06-17"
  },
  "F7D4C384125118": {
    "address": "臺北市中正區羅斯福路2段164之1號B1",
    "lat": 25.027172,
    "lng": 121.523152,
    "name": "松山新店線-古亭站",
    "resolved_at": "2026-06-17"
  },
  "F7D4C384125119": {
    "address": "臺北市中山區松江路316號B1",
    "lat": 25.05867,
    "lng": 121.53305,
    "name": "中和新蘆線-行天宮站",
    "resolved_at": "2026-06-17"
  },
  "F7D4C38C128657": {
    "address": "臺北市中正區羅斯福路4段64之1號B1",
    "lat": 25.0151548,
    "lng": 121.5341303,
    "name": "松山新店線-公館站",
    "resolved_at": "2026-06-17"
  },
  "F7D4C3B4116D80": {
    "address": "新北市三重區三和路4段107號B1",
    "lat": 25.07588,
    "lng": 121.4878,
    "name": "中和新蘆線-三和國中站",
    "resolved_at": "2026-06-17"
  },
  "F7D4C3B4116D81": {
    "address": "新北市新莊區中正路138號B1",
    "lat": 25.03607,
    "lng": 121.45278,
    "name": "中和新蘆線-新莊站",
    "resolved_at": "2026-06-17"
  },
  "F7D4C3B4116D82": {
    "address": "高雄市左營區博愛二路485號B1(紅線R14/穿堂走道靠近1號出入口)",
    "lat": 22.6656214,
    "lng": 120.3032563,
    "name": "紅線-巨蛋站",
    "resolved_at": "2026-06-17"
  },
  "F7D4C3C81216B3": {
    "address": "高雄市小港區沿海一路280號B1(紅線R3/近3號出入口)",
    "lat": 22.5645135,
    "lng": 120.3538755,
    "name": "紅線-小港站",
    "resolved_at": "2026-06-17"
  },
  "F7D4C3C81216B5": {
    "address": "新北市新店區北宜路1段2號",
    "lat": 24.958382,
    "lng": 121.5376458,
    "name": "松山新店線-新店站",
    "resolved_at": "2026-06-17"
  },
  "F7D4C3D7144228": {
    "address": "臺北市士林區中山北路5段65號(出口1)",
    "lat": 25.0854064,
    "lng": 121.5253594,
    "name": "淡水信義線-劍潭站",
    "resolved_at": "2026-06-17"
  },
  "F7D4C3D7144229": {
    "address": "臺北市文山區羅斯福路5段214號(出口4置物櫃旁)",
    "lat": 25.0014694,
    "lng": 121.5398308,
    "name": "松山新店線-萬隆站",
    "resolved_at": "2026-06-17"
  },
  "F7D4C3DA12A3A7": {
    "address": "臺北市南港區忠孝東路6段2號",
    "lat": 25.0447413,
    "lng": 121.5823224,
    "name": "板南線-後山埤站",
    "resolved_at": "2026-06-17"
  },
  "F7D4C3DA12A3A9": {
    "address": "臺北市中正區羅斯福路3段126之5號B1",
    "lat": 25.0206568,
    "lng": 121.5284041,
    "name": "松山新店線-台電大樓站",
    "resolved_at": "2026-06-17"
  },
  "F7D4C3DA12A3AA": {
    "address": "臺北市信義區忠孝東路4段400號",
    "lat": 25.04122,
    "lng": 121.55745,
    "name": "板南線-國父紀念館站",
    "resolved_at": "2026-06-17"
  },
  "F7D4C3F416BCD5": {
    "address": "新北市三重區重新路3段150號B1(出口1置物櫃旁)",
    "lat": 25.0594515,
    "lng": 121.4906361,
    "name": "中和新蘆線-菜寮站",
    "resolved_at": "2026-06-17"
  },
  "F7D4C3F716C4CA": {
    "address": "新北市蘆洲區三民路105號B1(出口2置物櫃旁)",
    "lat": 25.08577,
    "lng": 121.47374,
    "name": "中和新蘆線-三民高中站",
    "resolved_at": "2026-06-17"
  },
  "F7D4C3F716C4CC": {
    "address": "新北市新莊區中正路758號B1(出口3置物櫃旁)",
    "lat": 25.0225766,
    "lng": 121.4128259,
    "name": "中和新蘆線-迴龍站",
    "resolved_at": "2026-06-17"
  },
  "F7D4C41212D4F7": {
    "address": "臺北市松山區南京東路5段237號",
    "lat": 25.05155,
    "lng": 121.5636,
    "name": "松山新店線-南京三民站",
    "resolved_at": "2026-06-17"
  },
  "F7D4C41212D4F8": {
    "address": "臺北市萬華區西園路1段153號",
    "lat": 25.0351756,
    "lng": 121.4986578,
    "name": "板南線-龍山寺站",
    "resolved_at": "2026-06-17"
  },
  "F7D4C41212D4F9": {
    "address": "新北市板橋區南雅南路2段17號B1",
    "lat": 24.9989601,
    "lng": 121.4529046,
    "name": "板南線-亞東醫院站",
    "resolved_at": "2026-06-17"
  },
  "F7D4C41212D4FA": {
    "address": "新北市板橋區文化路2段296號B1",
    "lat": 25.02999,
    "lng": 121.472,
    "name": "板南線-江子翠站",
    "resolved_at": "2026-06-17"
  },
  "F7D4C424167BFD": {
    "address": "臺北市中正區公園路52號B1(出口4置物櫃旁)",
    "lat": 25.0417247,
    "lng": 121.5161259,
    "name": "淡水信義線-台大醫院站",
    "resolved_at": "2026-06-17"
  },
  "F7D4C45C164FBA": {
    "address": "臺北市士林區福德路1號(出口1)",
    "lat": 25.093665,
    "lng": 121.5261764,
    "name": "淡水信義線-士林站",
    "resolved_at": "2026-06-17"
  },
  "F7D4C45C1650DB": {
    "address": "臺北市松山區南京東路4段10之1號(出口2置物櫃旁)",
    "lat": 25.05157,
    "lng": 121.55118,
    "name": "松山新店線-台北小巨蛋站",
    "resolved_at": "2026-06-17"
  },
  "F7D4C469168A57": {
    "address": "新北市土城區中央路4段51之6號B3(出口4置物櫃旁)",
    "lat": 24.95852,
    "lng": 121.4178,
    "name": "板南線-頂埔站",
    "resolved_at": "2026-06-17"
  },
  "F7D4C469168B78": {
    "address": "臺北市大同區民權西路72號(出口4公共電話旁)",
    "lat": 25.0620249,
    "lng": 121.519701,
    "name": "淡水信義線-民權西路站",
    "resolved_at": "2026-06-17"
  },
  "F7D4C473169749": {
    "address": "臺北市內湖區內湖路1段256號(出口1置物櫃旁)",
    "lat": 25.082404,
    "lng": 121.5661416,
    "name": "文湖線-西湖站",
    "resolved_at": "2026-06-17"
  },
  "F7D4C47316974B": {
    "address": "臺北市大安區信義路3段100號B1(出口5置物櫃旁)",
    "lat": 25.0332095,
    "lng": 121.5341934,
    "name": "淡水信義線-大安森林公園站",
    "resolved_at": "2026-06-17"
  },
  "F7D4C47316974C": {
    "address": "臺北市信義區信義路5段152號B1(出口2通道)",
    "lat": 25.0326447,
    "lng": 121.5698016,
    "name": "淡水信義線-象山站",
    "resolved_at": "2026-06-17"
  },
  "F7D4C492120253": {
    "address": "新北市三重區三和路3段5號B1",
    "lat": 25.0706788,
    "lng": 121.4965671,
    "name": "中和新蘆線-三重國小站",
    "resolved_at": "2026-06-17"
  },
  "F7D4C492120254": {
    "address": "高雄市前鎮區中山三路150號B1(紅線R7/近3號出入口)",
    "lat": 22.6061802,
    "lng": 120.3078782,
    "name": "紅線-獅甲站",
    "resolved_at": "2026-06-17"
  },
  "F7D4C492120255": {
    "address": "新北市中和區中和路388號",
    "lat": 25.00049,
    "lng": 121.51111,
    "name": "中和新蘆線-永安市場站",
    "resolved_at": "2026-06-17"
  },
  "F7D4C4A2166FC0": {
    "address": "臺北市大同區民生西路47號(近中山地下街公共電話旁)",
    "lat": 25.0573401,
    "lng": 121.5188226,
    "name": "淡水信義線-雙連站",
    "resolved_at": "2026-06-17"
  },
  "F7D4C4A21670DE": {
    "address": "臺北市大同區民權西路223號B1(出口詢問處旁)",
    "lat": 25.0648159,
    "lng": 121.5136886,
    "name": "中和新蘆線-大橋頭站",
    "resolved_at": "2026-06-17"
  },
  "F7D4C4A21670E1": {
    "address": "臺北市大安區信義路4段212之1號B1(出口1)",
    "lat": 25.0344449,
    "lng": 121.5523917,
    "name": "淡水信義線-信義安和站",
    "resolved_at": "2026-06-17"
  },
  "F7D4C4A516D2EC": {
    "address": "臺北市北投區石牌路1段200號(出口1)",
    "lat": 25.1146778,
    "lng": 121.5150492,
    "name": "淡水信義線-石牌站",
    "resolved_at": "2026-06-17"
  },
  "F7D4C4A516D2EE": {
    "address": "臺北市大安區信義路3段180號B1(出口詢問處左前方)",
    "lat": 25.0333614,
    "lng": 121.5432548,
    "name": "淡水信義線-大安站",
    "resolved_at": "2026-06-17"
  },
  "F7D4C50F16F035": {
    "address": "新北市土城區金城路1段105號B1(出口2置物櫃旁)",
    "lat": 24.9737071,
    "lng": 121.4451684,
    "name": "板南線-土城站",
    "resolved_at": "2026-06-17"
  },
  "F7D4C50F16F155": {
    "address": "臺北市南港區忠孝東路7段380號(出口2A詢問處旁)",
    "lat": 25.0522082,
    "lng": 121.6071602,
    "name": "板南線-南港站",
    "resolved_at": "2026-06-17"
  },
  "F7D4C52312B459": {
    "address": "高雄市楠梓區加昌路598號(紅線R19/穿堂走道靠近1號出入口)",
    "lat": 22.7187124,
    "lng": 120.3071682,
    "name": "紅線-楠梓科技園區站",
    "resolved_at": "2026-06-17"
  },
  "F7D4C52312B45A": {
    "address": "新北市新店區北新路3段190號",
    "lat": 24.9836721,
    "lng": 121.5410915,
    "name": "松山新店線-大坪林站",
    "resolved_at": "2026-06-17"
  },
  "F7D4C52312B45B": {
    "address": "臺北市松山區八德路4段742號",
    "lat": 25.04987,
    "lng": 121.57785,
    "name": "松山新店線-松山站",
    "resolved_at": "2026-06-17"
  },
  "F7D4C52312B45C": {
    "address": "臺北市南港區研究院路1段1號",
    "lat": 25.05469,
    "lng": 121.61669,
    "name": "板南線-南港展覽館站",
    "resolved_at": "2026-06-17"
  },
  "F7D4C53512A9A0": {
    "address": "臺北市大安區新生南路1段67號",
    "lat": 25.0420084,
    "lng": 121.5329308,
    "name": "板南線-忠孝新生站",
    "resolved_at": "2026-06-17"
  },
  "F7D4C5391249AD": {
    "address": "臺北市信義區忠孝東路5段455號",
    "lat": 25.0408761,
    "lng": 121.5757045,
    "name": "板南線-永春站",
    "resolved_at": "2026-06-17"
  },
  "F7D4C5391249AE": {
    "address": "高雄市三民區博愛一路220號B1(紅線R12/近2號出入口)",
    "lat": 22.6477388,
    "lng": 120.3032208,
    "name": "紅線-後驛站",
    "resolved_at": "2026-06-17"
  },
  "F7D4C5391249AF": {
    "address": "高雄市前金區中山一路11號B1(紅線R9/穿堂層 往2號出口)",
    "lat": 22.6248493,
    "lng": 120.3012006,
    "name": "紅線-中央公園站",
    "resolved_at": "2026-06-17"
  },
  "F7D4C55712A1F8": {
    "address": "高雄市前鎮區中山二路268號B1(紅線R8/近4號出入口置物櫃前方)",
    "lat": 22.6141528,
    "lng": 120.3044216,
    "name": "紅線-三多商圈站",
    "resolved_at": "2026-06-17"
  },
  "F7D4C55712A1FA": {
    "address": "高雄市前鎮區中山三路1號B1(紅線R6/近1號出入口廁所旁)",
    "lat": 22.5970181,
    "lng": 120.3151134,
    "name": "紅線-凱旋站",
    "resolved_at": "2026-06-17"
  },
  "F7D4C56F112E3D": {
    "address": "新北市淡水區中正路1號",
    "lat": 25.1676706,
    "lng": 121.4456749,
    "name": "淡水信義線-淡水站",
    "resolved_at": "2026-06-17"
  },
  "F7D4C56F112E44": {
    "address": "106101臺北市大安區復興南路2段235號",
    "lat": 25.0261473,
    "lng": 121.5435476,
    "name": "文湖線-科技大樓站",
    "resolved_at": "2026-06-17"
  },
  "F7D4C594122F67": {
    "address": "新北市土城區中央路3段105號B1",
    "lat": 24.9672763,
    "lng": 121.4365055,
    "name": "板南線-永寧站",
    "resolved_at": "2026-06-17"
  },
  "F7D4C594122F68": {
    "address": "臺北市文山區羅斯福路6段216號",
    "lat": 24.99366,
    "lng": 121.54124,
    "name": "松山新店線-景美站",
    "resolved_at": "2026-06-17"
  },
  "F7D4C594122F69": {
    "address": "新北市三重區重新路1段108號B1",
    "lat": 25.0631779,
    "lng": 121.5005513,
    "name": "中和新蘆線-台北橋站",
    "resolved_at": "2026-06-17"
  },
  "F7D4C59D12B5D6": {
    "address": "高雄市鼓山區博愛二路21號B1(紅線R13/近3號出入口)",
    "lat": 22.6571226,
    "lng": 120.3030787,
    "name": "紅線-凹子底站",
    "resolved_at": "2026-06-17"
  },
  "F7D4C59D12B5D7": {
    "address": "高雄市左營區博愛三路435號B1(紅線R15/穿堂走道靠近1號出入口)",
    "lat": 22.6764628,
    "lng": 120.3063428,
    "name": "紅線-生態園區站",
    "resolved_at": "2026-06-17"
  },
  "F7D4C59D12B5D8": {
    "address": "臺北市松山區南京東路3段253號",
    "lat": 25.0526243,
    "lng": 121.544167,
    "name": "松山新店線-南京復興站",
    "resolved_at": "2026-06-17"
  },
  "F7D4C6240F2D1F": {
    "address": "台中市北區崇德路一段482號",
    "lat": 23.8072091,
    "lng": 120.7173081,
    "name": "台中崇德店",
    "resolved_at": "2026-06-17"
  },
  "F7D4C6240F2D20": {
    "address": "新北市中和區板南路510號",
    "lat": 25.0080928,
    "lng": 121.4845235,
    "name": "環狀線-中原站",
    "resolved_at": "2026-06-17"
  },
  "F7D4C6240F2DD0": {
    "address": "臺北市中山區松江路126號B1",
    "lat": 25.0520554,
    "lng": 121.5335073,
    "name": "中和新蘆線-松江南京站",
    "resolved_at": "2026-06-17"
  },
  "F7D4C6240F2DD1": {
    "address": "臺北市大安區忠孝東路4段47號",
    "lat": 25.0417471,
    "lng": 121.5426221,
    "name": "板南線-忠孝復興站",
    "resolved_at": "2026-06-17"
  },
  "F7D4C6240F2DD2": {
    "address": "臺北市大同區塔城街10號",
    "lat": 25.04885,
    "lng": 121.50988,
    "name": "松山新店線-北門站",
    "resolved_at": "2026-06-17"
  },
  "F7D4C630123253": {
    "address": "新北市蘆洲區中山一路3號B1",
    "lat": 25.0802975,
    "lng": 121.4805659,
    "name": "中和新蘆線-徐匯中學站",
    "resolved_at": "2026-06-17"
  },
  "F7D4C630123254": {
    "address": "臺北市中山區民權東路1段71號B1",
    "lat": 25.06246,
    "lng": 121.52705,
    "name": "中和新蘆線-中山國小站",
    "resolved_at": "2026-06-17"
  }
}
